
  [
    {
      "name": "Beruniy",
      "lat": 41.34473509874512,
      "lon": 69.20606100858011
    },
    {
      "name": "Tinchlik",
      "lat": 41.33239141396104,
      "lon": 69.2189827526836
    },
    {
      "name": "Chorsu",
      "lat": 41.325973054940675,
      "lon": 69.23697455330233
    },
    {
      "name": "G'afur_G'ulom",
      "lat": 41.32781861010611,
      "lon": 69.24610845324143
    },
    {
      "name": "Alisher_Navoiy",
      "lat": 41.31884598860592,
      "lon": 69.25428733672439
    },
    {
      "name": "O'zbekiston",
      "lat": 41.3121809355741,
      "lon": 69.25348367858608
    },
    {
      "name": "Kosmonavtlar",
      "lat": 41.30519165626931,
      "lon": 69.26477565099839
    },
    {
      "name": "Oybek",
      "lat": 41.29843209701362,
      "lon": 69.27301329794248
    },
    {
      "name": "Toshkent",
      "lat": 41.29314443705965,
      "lon": 69.28764276112878
    },
    {
      "name": "Mashinasozlar",
      "lat": 41.29895095906532,
      "lon": 69.30522456899133
    },
    {
      "name": "Do'stlik-2",
      "lat": 41.29466843773431,
      "lon": 69.32337016615988
    },
    {
      "name": "Tuzel",
      "lat": 41.29758824410477,
      "lon": 69.34980509441101
    },
    {
      "name": "Iltifot",
      "lat": 41.281690315495595,
      "lon": 69.36036015107592
    },
    {
      "name": "Rohat",
      "lat": 41.26534047331142,
      "lon": 69.36473003464717
    },
    {
      "name": "Yangiobod",
      "lat": 41.256523252038576,
      "lon": 69.3587547149304
    },
    {
      "name": "Qo'yliq",
      "lat": 41.23745138235148,
      "lon": 69.32705547616497
    },
    {
      "name": "Paralimpiya harakati",
      "lat": 41.244482242315335,
      "lon": 69.30881947518326
    },
    {
      "name": "Akademik Tursunboy Rashidov",
      "lat": 41.24440131184051,
      "lon": 69.30024331799491
    },
    {
      "name": "Turkiston",
      "lat": 41.377460301755335,
      "lon": 69.2959707457899
    },
    {
      "name": "Buyuk_Ipak_yo'li",
      "lat": 41.326183713209275,
      "lon": 69.32754235846707
    },
    {
      "name": "Pushkin",
      "lat": 41.32198442955089,
      "lon": 69.31110828572062
    },
    {
      "name": "Hamid_Olimjon",
      "lat": 41.31808497710777,
      "lon": 69.29558924504825
    },
    {
      "name": "Amir_Temur_hiyoboni",
      "lat": 41.31275877788173,
      "lon": 69.28350461154123
    },
    {
      "name": "Mustaqillik_Maydoni",
      "lat": 41.31496232807702,
      "lon": 69.27107443327256
    },
    {
      "name": "Paxtakor",
      "lat": 41.31776135985234,
      "lon": 69.25522108794136
    },
    {
      "name": "Xalqlar_do'stligi",
      "lat": 41.3120403551796,
      "lon": 69.24313443998642
    },
    {
      "name": "Milliy_bog'",
      "lat": 41.30330112288944,
      "lon": 69.2356827228966
    },
    {
      "name": "Novza",
      "lat": 41.29111376777418,
      "lon": 69.22306122585921
    },
    {
      "name": "Mirzo_Ulugbek",
      "lat": 41.28122087178184,
      "lon": 69.2120544482385
    },
    {
      "name": "Chilonzor",
      "lat": 41.275869796711675,
      "lon": 69.20328142572662
    },
    {
      "name": "Olmazor",
      "lat": 41.25582656799934,
      "lon": 69.19592426840148
    },
    {
      "name": "Choshtepa",
      "lat": 41.23809851859783,
      "lon": 69.19624116299526
    },
    {
      "name": "Toshkent_halqa_yo'li",
      "lat": 41.22726042783772,
      "lon": 69.20406193347415
    },
    {
      "name": "Sergili",
      "lat": 41.22063419199772,
      "lon": 69.20886277562718
    },
    {
      "name": "Afrosiyob",
      "lat": 41.21342453550048,
      "lon": 69.2140956598882
    },
    {
      "name": "Qipchoq",
      "lat": 41.20649977430141,
      "lon": 69.21914155246334
    },
    {
      "name": "Shaxriston",
      "lat": 41.35308028038105,
      "lon": 69.28807369215247
    },
    {
      "name": "Bodomzor",
      "lat": 41.33703464565612,
      "lon": 69.28454854379531
    },
    {
      "name": "Minor",
      "lat": 41.32677499926725,
      "lon": 69.28351784822304
    },
    {
      "name": "Abdulla_Qodiriy",
      "lat": 41.32014648040802,
      "lon": 69.28183808451311
    },
    {
      "name": "Yunus_Rajabiy",
      "lat": 41.313815075152554,
      "lon": 69.28346222699534
    },
    {
      "name": "Ming_o'rik",
      "lat": 41.29941464366709,
      "lon": 69.2740483065885
    },
    {
      "name": "Yunusobod",
      "lat": 41.36676889530881,
      "lon": 69.29229614521738
    }
  ]
